Farmer ID,Farmer Name,Location,GPS Coordinates,Date of Registration,Farming Method,Irrigation Method,Training Received,Mango Trees (0–3 yrs),Mango Trees (3–5 yrs),Mango Trees (5+ yrs),Hass Trees (0–3 yrs),Hass Trees (3–5 yrs),Hass Trees (5+ yrs),Fuerte Trees (0–3 yrs),Fuerte Trees (3–5 yrs),Fuerte Trees (5+ yrs),Pixie Trees (0–3 yrs),Pixie Trees (3–5 yrs),Pixie Trees (5+ yrs),Mango Season 1,Mango Season 2,Mango Season 3,Hass Season 1,Hass Season 2,Hass Season 3,Fuerte Season 1,Fuerte Season 2,Fuerte Season 3,Pixie Season 1,Pixie Season 2,Pixie Season 3,Total Trees,Latitude,Longitude
F001,Claudia Delacruz,Nziu,"-1.361118, 37.374807",2023-08-22,Organic,Rain-fed,No,1,9,0,16,14,4,2,10,2,0,12,4,45,126,99,250,328,336,190,166,130,280,272,232,74,-1.361118,37.374807
F002,Justin Wallace,Makindu,"-1.52932, 37.79411",2022-05-18,Conventional,Irrigated,Yes,12,10,39,24,0,36,7,25,20,10,0,0,1115,949,1328,1368,720,1368,1160,1150,785,0,0,0,183,-1.52932,37.79411
F003,Katherine Flynn,Kasikeu,"-1.613091, 37.884854",2021-04-15,Conventional,Rain-fed,No,7,15,21,2,0,1,31,25,8,8,15,0,855,999,783,44,48,43,611,536,638,165,90,90,133,-1.613091,37.884854
F004,Kari Nguyen,Wote,"-2.015324, 37.729577",2021-12-30,Organic,Rain-fed,No,18,0,8,9,6,0,0,6,9,5,8,0,192,192,216,84,48,84,429,378,300,48,96,80,69,-2.015324,37.729577
F005,Stephanie Alexander,Kibwezi,"-2.087072, 37.488477",2021-08-10,Organic,Irrigated,No,7,13,43,1,11,7,22,22,2,0,0,0,1416,964,1648,358,397,402,390,230,332,0,0,0,128,-2.087072,37.488477
F006,Gloria Woodard,Kyemole,"-1.730862, 38.017858",2021-05-09,Organic,Irrigated,Yes,0,0,0,0,53,7,0,42,38,47,34,13,0,0,0,980,1124,814,1766,1366,1504,737,1032,1147,234,-1.730862,38.017858
F007,James Collins,Mtito Andei,"-1.922407, 37.354497",2025-01-26,Organic,Irrigated,No,21,0,75,27,25,0,5,42,36,0,0,0,2775,2700,3075,275,125,375,1668,1806,1494,0,0,0,231,-1.922407,37.354497
F008,Jeffery Oconnor,Nzaui,"-2.393293, 37.828983",2020-06-29,Conventional,Irrigated,Yes,24,21,15,0,3,3,7,15,7,0,0,0,960,741,828,102,114,93,501,343,392,0,0,0,95,-2.393293,37.828983
F009,Alison Johnson,Makindu,"-2.00441, 37.505272",2021-12-16,Organic,Rain-fed,Yes,12,0,89,40,4,29,25,6,8,0,0,0,3649,2937,2403,1084,1494,1412,318,380,456,0,0,0,213,-2.00441,37.505272
F010,David Gordon,Kitise,"-2.180476, 37.907379",2023-03-25,Organic,Irrigated,No,8,34,0,14,0,17,0,10,9,17,11,0,272,442,170,714,731,340,357,434,303,165,88,110,120,-2.180476,37.907379
F011,Matthew Stewart,Mbooni,"-1.822957, 37.648479",2024-03-07,Organic,Rain-fed,No,40,45,15,15,0,24,0,2,0,0,0,0,1050,945,1245,528,720,528,22,28,20,0,0,0,141,-1.822957,37.648479
F012,Christine Wilson,Kalawa,"-2.256263, 37.568335",2022-08-27,Organic,Rain-fed,No,42,21,37,0,20,0,0,7,13,5,0,11,1838,2086,1748,200,280,140,694,721,673,275,253,363,156,-2.256263,37.568335
F013,Jeanne Knapp,Sultan Hamud,"-1.86583, 38.019124",2024-09-12,Organic,Rain-fed,No,58,14,12,29,23,25,16,0,4,0,0,0,654,478,490,1380,1055,1163,152,116,112,0,0,0,181,-1.86583,38.019124
F014,Douglas Bass,Kitise,"-1.498389, 37.763176",2025-08-18,Conventional,Irrigated,No,38,42,58,0,0,0,22,18,0,0,15,0,2182,2572,3136,0,0,0,270,234,216,195,165,135,193,-1.498389,37.763176
F015,Scott Orr,Kitise,"-1.789246, 37.250588",2024-03-30,Conventional,Irrigated,Yes,16,38,0,0,4,0,20,17,19,9,0,1,304,190,342,40,36,56,812,675,518,24,20,46,124,-1.789246,37.250588
F016,Shannon Reynolds,Kyemole,"-1.688736, 38.005658",2025-09-11,Conventional,Irrigated,No,35,43,19,6,2,0,31,0,0,10,16,0,652,1256,1457,12,20,22,0,0,0,144,208,160,162,-1.688736,38.005658
F017,Jesse Bradford,Makindu,"-1.949068, 37.798277",2025-12-21,Organic,Irrigated,Yes,0,102,29,20,5,0,0,0,56,0,36,0,2674,2356,1380,35,45,45,2520,2632,1512,468,504,396,248,-1.949068,37.798277
F018,Maurice Roberts,Mtito Andei,"-2.228275, 37.995578",2020-03-30,Conventional,Irrigated,Yes,1,6,5,8,14,0,1,3,18,0,0,0,269,241,290,154,154,196,567,795,945,0,0,0,56,-2.228275,37.995578
F019,Sara Allen,Kyemole,"-1.658669, 37.918844",2022-01-21,Organic,Rain-fed,No,8,5,1,7,15,17,1,2,9,13,11,11,76,60,57,628,760,905,343,294,310,583,462,484,100,-1.658669,37.918844
F020,Shawn Meyers,Mbooni,"-1.888348, 37.324569",2024-11-10,Organic,Irrigated,No,42,11,20,0,24,13,14,19,6,0,0,0,477,808,1145,469,919,806,504,416,356,0,0,0,149,-1.888348,37.324569
F021,Steven Gomez,Kalawa,"-2.318847, 37.934353",2024-05-13,Organic,Irrigated,Yes,33,34,53,0,10,0,0,35,0,0,0,0,1544,1775,1525,60,50,150,315,455,245,0,0,0,165,-2.318847,37.934353
F022,Ms. Heather Underwood,Kilungu,"-1.52296, 37.268114",2020-08-30,Organic,Rain-fed,No,30,36,0,33,0,0,24,4,17,0,0,0,396,324,360,0,0,0,401,753,519,0,0,0,144,-1.52296,37.268114
F023,John Todd,Ukia,"-1.870945, 37.816985",2022-05-20,Organic,Irrigated,No,58,37,20,24,4,0,2,31,0,2,14,0,938,1241,1207,36,20,60,465,248,279,98,210,84,192,-1.870945,37.816985
F024,Mary Pittman,Mbooni,"-2.2809, 38.036005",2023-06-12,Organic,Irrigated,Yes,28,85,0,5,4,9,36,7,48,0,22,0,595,850,680,291,249,419,2381,1346,1373,286,264,220,244,-2.2809,38.036005
F025,Cathy Frazier,Kasikeu,"-1.30167, 37.827995",2021-06-11,Organic,Irrigated,No,32,0,16,29,7,20,0,18,23,44,11,34,704,496,720,918,505,945,591,1225,1246,1809,1119,1446,234,-1.30167,37.827995
F026,Steven King,Makindu,"-2.012792, 37.8168",2023-08-15,Conventional,Irrigated,No,5,7,25,31,0,22,7,15,29,7,0,2,1134,688,1020,1012,880,946,1511,845,1526,76,60,84,150,-2.012792,37.8168
F027,Judith Silva,Emali,"-1.665328, 37.298192",2024-07-24,Organic,Irrigated,Yes,5,0,30,4,8,10,0,12,0,0,0,0,1440,1080,1080,418,538,406,180,144,120,0,0,0,69,-1.665328,37.298192
F028,Heather Durham,Kilungu,"-1.377695, 37.368831",2021-01-09,Organic,Irrigated,Yes,22,9,20,34,0,0,55,12,42,13,4,19,634,690,941,0,0,0,1524,924,1674,896,887,979,230,-1.377695,37.368831
F029,Connie Mullins,Mtito Andei,"-1.485034, 37.40105",2024-08-10,Conventional,Irrigated,Yes,4,0,39,38,20,5,46,12,7,19,0,33,1170,1209,780,365,435,390,482,389,339,1617,1518,858,223,-1.485034,37.40105
F030,Samantha Perry,Kalawa,"-1.980883, 37.939461",2023-06-24,Conventional,Irrigated,Yes,13,5,21,17,34,20,0,35,48,0,0,0,613,848,912,1086,1136,1084,2449,1519,2296,0,0,0,193,-1.980883,37.939461
F031,Lori Campbell,Kibwezi,"-1.68118, 37.718572",2020-10-26,Conventional,Irrigated,No,20,15,19,0,3,6,10,0,0,6,0,0,1042,602,660,330,198,297,0,0,0,0,0,0,79,-1.68118,37.718572
F032,Kayla Peterson,Nguu,"-2.311368, 37.204636",2024-01-10,Organic,Rain-fed,Yes,75,0,6,38,28,46,17,2,13,0,0,0,168,240,174,1808,2450,1910,393,391,638,0,0,0,225,-2.311368,37.204636
F033,Peter Cruz,Nziu,"-1.402527, 37.52472",2024-04-13,Organic,Rain-fed,No,21,0,28,34,0,27,6,0,30,0,0,7,588,1400,1288,1053,1188,999,660,1230,1290,217,196,168,153,-1.402527,37.52472
F034,Sean Simmons,Emali,"-2.083394, 37.689615",2023-06-09,Conventional,Rain-fed,Yes,81,7,0,0,12,0,16,33,45,0,0,0,42,91,35,108,72,180,1860,1848,1926,0,0,0,194,-2.083394,37.689615
F035,Amber Smith,Kitise,"-1.563646, 37.367695",2024-03-09,Organic,Rain-fed,No,11,48,49,7,0,8,16,31,44,0,0,0,2587,2829,2443,248,272,304,1431,1221,2347,0,0,0,214,-1.563646,37.367695
F036,Brian Garcia,Kasikeu,"-2.133756, 38.073712",2022-11-07,Conventional,Irrigated,Yes,17,10,78,9,17,0,21,26,16,0,0,0,2782,2264,3318,238,238,238,1078,798,916,0,0,0,194,-2.133756,38.073712
F037,Seth Campbell,Kasikeu,"-2.302791, 38.047105",2023-08-08,Organic,Rain-fed,Yes,22,0,28,0,2,6,24,1,22,0,0,0,1372,1008,700,258,184,302,587,1022,841,0,0,0,105,-2.302791,38.047105
F038,Warren Schroeder,Kathonzweni,"-1.855374, 37.300969",2021-02-09,Conventional,Irrigated,Yes,32,33,13,0,19,22,35,11,0,0,0,0,699,820,1066,636,967,642,77,110,77,0,0,0,165,-1.855374,37.300969
F039,James King,Mtito Andei,"-2.240379, 37.578136",2020-02-04,Organic,Rain-fed,No,4,17,25,26,2,0,0,0,14,0,0,0,1277,879,727,20,28,18,462,658,392,0,0,0,88,-2.240379,37.578136
F040,Harold Robles,Kalawa,"-1.576964, 37.667802",2021-11-10,Conventional,Irrigated,Yes,15,23,11,4,6,1,10,11,3,0,0,6,667,505,671,130,80,116,268,201,230,258,252,276,90,-1.576964,37.667802
F041,Tiffany Larsen,Sultan Hamud,"-2.286441, 38.028434",2022-08-30,Conventional,Rain-fed,Yes,30,0,12,0,21,18,11,6,14,0,0,0,336,444,312,615,639,951,328,538,660,0,0,0,112,-2.286441,38.028434
F042,Joel Watson,Kibwezi,"-2.315309, 37.559182",2020-02-25,Organic,Rain-fed,No,23,0,4,21,17,10,8,0,25,0,0,6,196,180,100,664,558,409,1200,600,1150,162,222,174,114,-2.315309,37.559182
F043,Ryan Cannon,Kitise,"-2.095541, 37.222244",2025-04-25,Conventional,Irrigated,Yes,2,56,54,28,11,0,32,0,22,0,0,0,1630,2072,2070,88,143,121,484,770,858,0,0,0,205,-2.095541,37.222244
F044,Anthony Moran,Kathonzweni,"-2.428141, 37.979902",2022-06-09,Organic,Rain-fed,No,38,52,32,2,55,19,0,0,29,0,0,0,2124,1528,1372,1156,900,1078,1421,1131,1363,0,0,0,227,-2.428141,37.979902
F045,Ms. Sara Castro MD,Nziu,"-1.953438, 38.070032",2021-11-25,Conventional,Irrigated,No,56,0,37,0,13,4,40,26,0,0,0,0,1628,1665,1036,220,218,310,208,234,182,0,0,0,176,-1.953438,38.070032
F046,Cheyenne Serrano,Makindu,"-1.636327, 37.964724",2025-09-29,Organic,Rain-fed,No,61,1,68,23,37,11,2,11,0,6,7,0,2190,3278,2188,534,754,740,99,77,55,98,105,84,227,-1.636327,37.964724
F047,Michael Larson,Sultan Hamud,"-2.359866, 37.227838",2022-08-17,Conventional,Rain-fed,Yes,0,27,0,10,14,20,0,8,5,0,0,0,324,297,351,698,754,596,278,365,298,0,0,0,84,-2.359866,37.227838
F048,Jessica Lane,Wote,"-1.21447, 37.419064",2024-02-27,Conventional,Irrigated,No,53,66,9,15,0,6,5,11,0,0,0,0,1266,759,1098,138,300,288,88,55,66,0,0,0,165,-1.21447,37.419064
F049,Jessica Carroll,Kasikeu,"-1.860412, 38.161644",2020-01-05,Conventional,Irrigated,No,10,20,27,16,0,40,39,20,8,21,0,0,955,787,781,1000,1600,1320,552,480,596,0,0,0,201,-1.860412,38.161644
F050,Angelica Patterson,Wote,"-1.212624, 37.228561",2024-07-21,Organic,Irrigated,No,0,20,1,13,0,12,11,2,0,0,0,0,242,188,189,540,420,264,16,18,22,0,0,0,59,-1.212624,37.228561
F051,Patricia Francis,Nzaui,"-2.460414, 38.143123",2024-09-26,Organic,Rain-fed,Yes,11,11,33,8,8,19,11,3,23,0,0,0,770,1408,1496,591,854,854,567,648,800,0,0,0,127,-2.460414,38.143123
F052,John Murray,Mbooni,"-2.286183, 37.275532",2023-01-27,Organic,Irrigated,No,0,10,7,19,0,0,12,21,53,32,27,18,343,245,407,0,0,0,1937,2722,1407,630,846,963,199,-2.286183,37.275532
F053,Mrs. Michelle Rivas MD,Ukia,"-1.96674, 37.715721",2020-12-02,Organic,Irrigated,Yes,0,70,54,52,0,24,0,0,19,0,0,0,3086,3016,3114,528,600,1128,817,608,570,0,0,0,219,-1.96674,37.715721
F054,Patrick Boyd,Nguu,"-2.066366, 37.693811",2022-05-09,Organic,Rain-fed,Yes,14,4,48,1,0,22,30,0,10,0,0,0,2164,1444,1764,440,462,770,410,430,200,0,0,0,129,-2.066366,37.693811
F055,Ryan Ballard,Kathonzweni,"-2.371347, 37.260759",2021-12-29,Organic,Rain-fed,No,3,0,13,2,11,12,0,12,12,0,0,0,364,624,351,398,354,406,504,480,408,0,0,0,65,-2.371347,37.260759
F056,Sally Lang,Kibwezi,"-2.117729, 37.255572",2020-02-12,Conventional,Irrigated,Yes,24,61,0,0,15,40,0,0,36,0,0,0,549,854,732,2085,1300,1405,1116,1764,1044,0,0,0,176,-2.117729,37.255572
F057,Jessica Jacobs DVM,Mbooni,"-2.184873, 38.126851",2025-01-05,Organic,Irrigated,Yes,63,35,45,20,0,15,0,30,17,0,0,0,2155,1650,2580,525,690,555,758,1164,571,0,0,0,225,-2.184873,38.126851
F058,Mary Carter,Kilungu,"-1.884883, 37.408943",2025-10-04,Organic,Irrigated,Yes,30,33,24,10,0,41,3,0,6,18,0,30,1146,1575,1278,1886,1394,1148,132,240,240,1080,660,1320,195,-1.884883,37.408943
F059,Sandra Jones,Mtito Andei,"-2.115795, 38.06188",2025-05-13,Conventional,Irrigated,Yes,10,8,1,11,0,4,9,0,2,1,6,0,141,113,64,140,120,160,96,56,84,60,30,72,52,-2.115795,38.06188
F060,Victoria Bennett,Nziu,"-1.651547, 37.471436",2020-12-08,Organic,Irrigated,No,0,0,0,0,14,22,18,21,19,13,3,12,0,0,0,1268,942,1094,839,753,875,615,540,381,122,-1.651547,37.471436
F061,Tina Dennis,Emali,"-1.5323, 37.974847",2025-07-24,Conventional,Irrigated,No,27,51,48,4,4,6,0,0,20,0,12,0,1668,1761,1983,196,340,160,540,520,820,156,144,144,172,-1.5323,37.974847
F062,Barbara Stevenson,Nzaui,"-2.362204, 37.31689",2022-03-28,Conventional,Irrigated,Yes,29,0,39,33,4,43,0,2,18,2,0,0,1755,1404,1209,1776,1459,1525,768,388,586,0,0,0,170,-2.362204,37.31689
F063,Amanda Garcia,Kalawa,"-1.705892, 37.889148",2023-01-18,Organic,Rain-fed,No,0,30,39,0,17,2,16,0,6,0,0,0,1743,1944,2262,142,176,285,180,252,180,0,0,0,110,-1.705892,37.889148
F064,Bradley Willis,Mtito Andei,"-1.976263, 37.485287",2022-11-22,Organic,Rain-fed,Yes,60,0,36,20,15,11,45,15,0,0,1,16,1152,1620,1584,448,455,712,210,165,210,396,781,765,219,-1.976263,37.485287
F065,Alan Wilson,Nzaui,"-1.500404, 38.025748",2023-10-11,Organic,Rain-fed,Yes,15,15,0,11,2,0,4,4,0,0,0,0,120,120,150,12,22,22,44,48,48,0,0,0,51,-1.500404,38.025748
F066,Monica White,Emali,"-2.466987, 37.586224",2021-10-10,Organic,Irrigated,No,0,0,6,25,28,42,1,25,0,29,0,21,132,186,180,2268,1330,1554,250,275,175,504,966,546,177,-2.466987,37.586224
F067,Robert Miller,Mbooni,"-1.759251, 37.899891",2023-03-02,Organic,Rain-fed,No,0,4,0,8,0,13,10,8,8,0,6,0,24,60,44,403,286,390,312,296,280,84,30,30,57,-1.759251,37.899891
F068,Morgan Gill,Ukia,"-1.773294, 37.679407",2025-03-17,Organic,Rain-fed,Yes,1,11,14,2,10,21,1,3,3,8,8,12,641,399,661,614,1140,1005,96,138,135,448,512,316,94,-1.773294,37.679407
F069,Bryan Rogers,Kalawa,"-1.654576, 37.418171",2021-12-01,Conventional,Rain-fed,No,20,1,0,14,0,15,12,10,13,0,0,0,14,10,12,510,690,435,640,513,503,0,0,0,85,-1.654576,37.418171
F070,Michael Perkins,Kathonzweni,"-1.316527, 37.347765",2023-06-16,Conventional,Irrigated,No,54,0,7,24,4,37,11,0,16,0,0,0,315,301,329,891,1249,1586,672,576,528,0,0,0,153,-1.316527,37.347765
F071,Suzanne Stanley,Emali,"-1.782567, 37.909975",2023-03-02,Organic,Irrigated,Yes,8,28,48,9,22,11,0,31,2,0,0,0,1864,2476,1948,517,550,660,324,366,274,0,0,0,159,-1.782567,37.909975
F072,Lauren Herrera,Sultan Hamud,"-2.023456, 37.444192",2021-02-18,Conventional,Rain-fed,No,26,32,7,0,14,2,0,5,0,6,0,2,692,498,448,310,216,148,55,25,40,58,90,56,94,-2.023456,37.444192
F073,Timothy Foster,Sultan Hamud,"-1.237956, 37.914066",2022-06-08,Conventional,Irrigated,No,0,43,51,22,16,20,1,0,2,0,0,0,2153,1756,2293,836,592,784,84,42,74,0,0,0,155,-1.237956,37.914066
F074,Matthew Griffin,Kyemole,"-2.016365, 37.403026",2021-06-15,Organic,Rain-fed,Yes,46,29,57,0,0,0,47,0,10,25,0,16,2141,3083,2313,0,0,0,380,460,500,544,384,592,230,-2.016365,37.403026
F075,Lisa Bates,Mtito Andei,"-1.309359, 37.224365",2025-01-20,Organic,Rain-fed,Yes,15,29,52,27,0,25,0,33,10,0,0,0,2179,2642,2393,1025,650,975,438,670,776,0,0,0,191,-1.309359,37.224365
F076,Charles Mason,Nziu,"-2.012682, 37.895281",2025-05-13,Organic,Irrigated,No,0,12,5,19,26,17,20,17,44,0,0,0,358,296,425,691,771,789,2150,1666,1707,0,0,0,160,-2.012682,37.895281
F077,Christopher Andrews,Kyemole,"-2.242843, 37.796035",2020-02-21,Organic,Rain-fed,Yes,0,44,0,0,0,40,30,32,19,0,15,23,572,660,220,1000,960,800,844,851,724,917,1261,687,203,-2.242843,37.796035
F078,David Nichols,Sultan Hamud,"-2.255735, 37.576443",2022-09-09,Conventional,Irrigated,Yes,10,26,0,0,0,12,0,9,16,0,0,0,390,156,260,552,324,432,935,767,746,0,0,0,73,-2.255735,37.576443
F079,Kaitlin Carpenter,Kilungu,"-1.593641, 37.455928",2021-02-09,Conventional,Irrigated,No,85,8,44,1,22,4,0,23,6,0,0,0,1232,2172,1484,230,340,432,381,472,287,0,0,0,193,-1.593641,37.455928
F080,Roger Simpson,Mbooni,"-1.429488, 38.16664",2021-02-06,Organic,Rain-fed,No,7,24,27,10,14,3,21,4,19,0,0,0,924,1320,864,202,318,190,637,564,705,0,0,0,129,-1.429488,38.16664
F081,Sheila Curtis,Mbooni,"-2.460728, 37.895549",2024-11-13,Organic,Rain-fed,Yes,58,0,33,0,20,52,0,1,4,13,39,0,1221,1023,990,1504,1440,2200,130,193,156,468,468,468,220,-2.460728,37.895549
F082,Alyssa Hunter,Kitise,"-2.090922, 37.547894",2024-10-15,Conventional,Rain-fed,No,14,26,12,30,4,9,0,4,0,3,4,7,874,558,694,371,472,417,48,44,36,263,287,266,113,-2.090922,37.547894
F083,Lori Perry,Thange,"-1.703375, 37.877348",2025-04-16,Organic,Irrigated,No,29,34,4,5,24,26,0,29,0,7,16,0,570,456,622,1258,1456,1276,261,232,145,176,224,80,174,-1.703375,37.877348
F084,Brandon Pham,Kathonzweni,"-1.643898, 37.924621",2021-06-07,Organic,Irrigated,Yes,42,70,3,0,30,14,20,18,49,0,0,0,692,428,1121,928,814,622,1588,2367,1307,0,0,0,246,-1.643898,37.924621
F085,Peter Carlson,Kitise,"-1.670628, 37.436863",2022-10-22,Conventional,Irrigated,No,40,48,0,14,1,10,0,10,0,8,0,0,576,288,432,318,330,385,110,130,80,0,0,0,131,-1.670628,37.436863
F086,Donna May,Kyemole,"-1.698386, 37.230001",2023-07-28,Organic,Rain-fed,No,9,8,6,11,9,17,0,1,0,0,0,0,386,308,406,871,499,873,8,6,5,0,0,0,61,-1.698386,37.230001
F087,Matthew Gomez,Mtito Andei,"-2.049595, 37.388788",2020-03-08,Conventional,Rain-fed,No,0,0,8,0,50,57,28,40,27,0,0,0,272,320,304,3315,3250,3543,1508,1802,1590,0,0,0,210,-2.049595,37.388788
F088,Jackson Peterson,Nzaui,"-1.906947, 37.238507",2024-10-05,Organic,Irrigated,Yes,82,50,14,38,46,0,10,0,2,0,0,0,830,1218,1310,460,276,598,68,68,64,0,0,0,242,-1.906947,37.238507
F089,Aaron Mcguire,Kibwezi,"-2.332369, 37.976313",2022-03-27,Organic,Irrigated,No,21,32,23,28,32,19,0,18,26,0,0,0,1299,689,868,1073,732,1151,1022,1032,1376,0,0,0,199,-2.332369,37.976313
F090,Miss Elizabeth Hays MD,Kalawa,"-2.196165, 37.539409",2025-03-28,Organic,Rain-fed,No,41,59,0,16,11,33,0,6,38,0,0,0,413,885,708,1749,935,1232,1668,1778,1370,0,0,0,204,-2.196165,37.539409
F091,Jennifer Michael,Kilungu,"-1.842989, 37.338643",2021-09-11,Organic,Irrigated,No,41,2,36,0,12,0,0,12,0,7,0,0,1722,1570,1644,168,168,156,120,96,108,0,0,0,110,-1.842989,37.338643
F092,Christopher Smith,Sultan Hamud,"-1.934757, 37.846309",2023-06-27,Conventional,Irrigated,No,12,28,3,0,2,12,3,0,2,0,20,0,349,492,364,374,384,376,58,64,78,300,180,100,82,-1.934757,37.846309
F093,John Andrade,Kyemole,"-2.112286, 37.442463",2022-09-24,Conventional,Rain-fed,No,37,47,0,10,51,40,3,15,5,0,0,0,564,517,376,1645,2157,1441,330,325,340,0,0,0,208,-2.112286,37.442463
F094,Margaret Hutchinson,Ukia,"-1.214255, 38.072917",2023-09-24,Conventional,Irrigated,Yes,22,6,40,0,40,27,25,2,0,5,0,17,1604,1734,1066,1251,1438,1089,20,16,24,374,374,544,184,-1.214255,38.072917
F095,Justin Anderson,Nguu,"-2.115145, 37.607962",2020-05-25,Organic,Irrigated,Yes,0,45,49,0,28,0,13,21,0,0,0,1,2602,1344,3080,280,196,252,210,147,252,31,43,38,157,-2.115145,37.607962
F096,Linda Roy,Emali,"-1.333194, 37.416824",2021-12-30,Organic,Rain-fed,No,0,1,9,2,8,18,8,17,10,0,0,0,455,228,297,818,522,550,609,568,678,0,0,0,73,-1.333194,37.416824
F097,Brittany Castillo,Emali,"-2.239469, 38.145582",2020-12-05,Organic,Rain-fed,No,12,12,0,29,0,12,0,7,38,12,29,15,72,84,132,420,516,324,1611,1369,1248,621,797,961,166,-2.239469,38.145582
F098,Matthew Kennedy,Emali,"-1.526059, 37.290358",2023-02-12,Conventional,Irrigated,Yes,8,26,0,0,29,21,33,0,13,0,14,0,364,260,390,1275,1059,1224,481,286,559,196,70,168,144,-1.526059,37.290358
F099,Nathan Jenkins,Thange,"-1.568926, 37.316374",2022-07-15,Organic,Irrigated,No,24,2,0,3,15,6,5,9,6,4,7,6,28,18,28,387,444,288,378,276,348,234,345,247,87,-1.568926,37.316374
F100,Patrick Jones,Mtito Andei,"-1.823883, 37.383106",2022-06-26,Organic,Rain-fed,No,28,3,44,10,0,4,0,9,2,0,0,0,1133,1796,2004,168,152,100,181,173,166,0,0,0,100,-1.823883,37.383106
F101,Tanya Casey,Mtito Andei,"-1.381128, 37.752761",2025-10-09,Conventional,Irrigated,Yes,15,0,16,8,2,0,4,8,4,0,5,0,768,656,368,30,10,16,320,280,208,25,45,40,62,-1.381128,37.752761
F102,Donna Munoz DDS,Kathonzweni,"-1.808079, 37.398856",2022-03-02,Organic,Irrigated,Yes,6,2,5,2,46,46,14,20,10,0,0,0,169,143,155,1978,2254,2760,490,770,540,0,0,0,151,-1.808079,37.398856
F103,Mark Livingston,Wote,"-1.906792, 37.56135",2023-05-10,Organic,Rain-fed,No,1,0,6,0,17,10,0,19,16,0,0,0,294,198,288,366,359,653,955,558,941,0,0,0,69,-1.906792,37.56135
F104,Robert Craig,Kibwezi,"-2.10208, 37.297463",2024-11-24,Conventional,Rain-fed,Yes,38,14,19,11,7,1,0,19,0,0,18,14,583,801,573,128,86,107,171,266,247,642,662,570,141,-2.10208,37.297463
F105,James Weaver,Nziu,"-2.292247, 37.534328",2023-09-01,Conventional,Rain-fed,Yes,51,0,0,32,0,2,0,30,23,24,0,10,0,0,0,94,52,70,1501,930,1494,220,350,310,172,-2.292247,37.534328
F106,Mr. Chad Ballard Jr.,Nziu,"-1.355687, 37.262885",2025-04-09,Conventional,Irrigated,No,16,0,34,12,0,0,17,14,1,0,0,0,714,952,1496,0,0,0,154,168,92,0,0,0,94,-1.355687,37.262885
F107,Blake Boyle,Kasikeu,"-2.475705, 37.416059",2022-11-12,Conventional,Rain-fed,No,4,8,36,0,7,15,10,0,15,0,0,0,1660,1664,824,638,574,489,585,750,405,0,0,0,95,-2.475705,37.416059
F108,Kevin Jones,Wote,"-1.737003, 37.846701",2025-01-04,Conventional,Irrigated,Yes,44,75,0,0,28,0,4,0,44,0,0,0,450,600,450,196,392,140,1804,1804,1540,0,0,0,195,-1.737003,37.846701
F109,Nicholas Brady,Emali,"-1.488621, 37.54284",2025-07-14,Conventional,Rain-fed,No,0,41,4,12,10,0,18,11,9,4,0,0,742,424,471,100,80,100,584,410,336,0,0,0,109,-1.488621,37.54284
F110,Andrew Browning,Nziu,"-1.97466, 37.683121",2024-09-05,Conventional,Irrigated,Yes,28,17,6,16,12,0,7,0,7,9,0,6,273,404,442,72,168,96,259,350,308,240,240,168,108,-1.97466,37.683121
F111,Alyssa Reyes,Kibwezi,"-1.383372, 38.059695",2023-09-03,Organic,Rain-fed,Yes,2,24,6,0,8,12,0,0,6,4,0,8,432,552,534,400,496,308,180,246,270,352,368,368,70,-1.383372,38.059695
F112,Kevin Flynn,Kyemole,"-2.075504, 37.847882",2024-03-10,Conventional,Rain-fed,No,0,0,16,11,13,13,4,3,1,0,0,0,336,528,784,793,650,481,66,73,57,0,0,0,61,-2.075504,37.847882
F113,Frank Powell,Kyemole,"-2.230763, 37.217431",2023-08-20,Conventional,Irrigated,No,0,0,0,48,22,0,59,47,9,0,27,10,0,0,0,132,220,264,894,875,577,539,571,681,222,-2.230763,37.217431
F114,Michael Ferguson,Kyemole,"-1.977161, 37.427567",2021-04-03,Organic,Rain-fed,Yes,73,14,51,0,22,0,0,36,22,4,6,17,2556,2667,1971,110,154,330,998,1604,934,515,750,769,245,-1.977161,37.427567
F115,Amy Hardin,Nziu,"-1.673792, 37.291451",2022-12-10,Organic,Irrigated,Yes,4,54,25,36,21,11,0,21,1,0,0,7,1220,1856,1470,400,581,723,284,258,260,273,238,140,180,-1.673792,37.291451
F116,Amanda Young,Kalawa,"-2.405322, 37.979873",2024-10-27,Organic,Irrigated,Yes,25,22,12,3,0,15,2,0,0,0,0,0,386,738,742,345,720,375,0,0,0,0,0,0,79,-2.405322,37.979873
F117,Lynn Smith,Makindu,"-1.760594, 37.553554",2021-11-10,Conventional,Irrigated,Yes,0,35,11,0,23,18,27,0,26,17,7,0,963,794,735,870,912,1006,702,676,728,77,63,49,164,-1.760594,37.553554
F118,Mary Berger,Kitise,"-1.662937, 38.053116",2023-06-17,Conventional,Rain-fed,No,7,0,30,12,0,7,4,17,16,17,10,0,930,690,1050,350,301,147,841,661,811,100,70,60,120,-1.662937,38.053116
F119,Joanna Pearson,Kibwezi,"-1.974297, 37.24955",2020-02-11,Conventional,Irrigated,Yes,31,36,0,0,22,8,3,0,12,0,0,0,324,252,324,532,706,404,600,396,324,0,0,0,112,-1.974297,37.24955
F120,Grant Cummings,Nziu,"-2.310406, 37.574461",2022-05-06,Organic,Rain-fed,No,29,0,9,8,3,19,0,0,26,0,10,3,324,225,297,822,401,895,598,1066,806,274,143,278,107,-2.310406,37.574461
F121,Gloria Heath,Nguu,"-1.202535, 37.397406",2022-11-24,Organic,Irrigated,No,10,14,11,31,14,0,21,11,11,0,0,0,702,554,636,84,70,196,473,374,374,0,0,0,123,-1.202535,37.397406
F122,Aaron Lee,Emali,"-1.201878, 38.133934",2025-09-12,Conventional,Rain-fed,Yes,29,91,0,19,30,0,19,47,0,0,0,0,1183,728,1001,270,300,270,423,517,658,0,0,0,235,-1.201878,38.133934
F123,Catherine Morgan,Nzaui,"-1.375693, 37.237356",2025-12-25,Conventional,Rain-fed,No,7,51,33,9,37,44,0,0,0,0,0,0,1404,1782,1446,1713,1588,1882,0,0,0,0,0,0,181,-1.375693,37.237356
F124,Douglas Mullins,Nguu,"-1.492315, 37.599719",2021-07-10,Conventional,Rain-fed,Yes,32,5,25,3,28,37,0,36,26,0,1,0,840,765,565,2084,1796,2000,1726,1378,700,14,5,11,193,-1.492315,37.599719
F125,John Morton,Kyemole,"-1.360242, 37.684805",2024-10-30,Conventional,Rain-fed,Yes,42,0,5,20,33,27,10,10,12,0,0,0,175,180,155,1731,1083,1101,326,440,540,0,0,0,159,-1.360242,37.684805
F126,Melanie Perry,Kasikeu,"-2.455727, 37.778619",2020-02-18,Organic,Rain-fed,No,0,73,8,26,8,32,1,23,25,0,0,0,1260,1163,1075,1544,1352,1240,1232,1255,1055,0,0,0,196,-2.455727,37.778619
F127,Cheryl Irwin,Mtito Andei,"-1.980712, 37.583134",2023-02-22,Organic,Irrigated,No,22,28,0,2,1,13,0,16,4,0,0,0,364,420,140,590,454,532,212,232,344,0,0,0,86,-1.980712,37.583134
F128,Sean Odonnell,Nziu,"-2.179758, 37.394209",2020-08-12,Conventional,Rain-fed,No,50,19,33,28,33,0,28,20,0,0,2,0,1576,774,1604,297,495,495,260,140,100,10,14,14,213,-2.179758,37.394209
F129,Paul Williams,Kyemole,"-1.528746, 38.199793",2021-09-26,Organic,Irrigated,Yes,26,86,0,5,27,38,0,0,32,1,14,0,946,1204,1118,1785,2197,1242,704,992,1536,98,112,84,229,-1.528746,38.199793
F130,Joseph Morgan,Kibwezi,"-2.179697, 37.750253",2025-11-30,Conventional,Rain-fed,Yes,20,13,0,0,0,16,15,0,1,0,0,0,156,195,156,416,800,320,22,25,31,0,0,0,65,-2.179697,37.750253
F131,Brady Davis,Ukia,"-1.752312, 37.391622",2024-06-21,Organic,Irrigated,No,47,2,0,13,0,0,8,0,22,1,4,13,22,10,16,0,0,0,638,704,1056,538,569,644,110,-1.752312,37.391622
F132,Cameron Buckley,Kilungu,"-1.286915, 38.124867",2024-07-12,Conventional,Rain-fed,Yes,0,22,23,4,0,0,0,10,0,0,11,9,793,931,1070,0,0,0,50,130,150,332,478,372,79,-1.286915,38.124867
F133,Darryl Bell,Nzaui,"-1.280576, 38.088832",2020-05-14,Conventional,Rain-fed,No,3,17,29,0,0,0,0,17,4,5,12,7,1407,810,1596,0,0,0,279,309,340,356,350,416,94,-1.280576,38.088832
F134,Alicia Benitez,Kathonzweni,"-2.395553, 37.626229",2024-02-12,Conventional,Rain-fed,No,60,1,10,35,38,12,2,21,0,0,0,0,283,409,276,580,800,904,189,315,231,0,0,0,179,-2.395553,37.626229
F135,Dana Odonnell,Kibwezi,"-1.205034, 38.046097",2023-02-01,Organic,Rain-fed,No,49,30,22,27,0,36,14,12,28,0,0,0,1380,882,1408,1116,1080,1440,1448,852,924,0,0,0,218,-1.205034,38.046097
F136,Todd Park,Kibwezi,"-2.032701, 37.945025",2024-12-02,Conventional,Irrigated,Yes,44,52,0,0,1,16,17,7,3,8,5,0,416,260,520,590,645,517,134,173,164,75,50,40,153,-2.032701,37.945025
F137,Travis Davis,Emali,"-1.818772, 37.896985",2023-07-07,Conventional,Irrigated,No,63,17,17,12,27,34,6,0,20,0,0,0,578,782,952,2044,1780,1310,940,640,660,0,0,0,196,-1.818772,37.896985
F138,Stuart Walker,Kasikeu,"-1.839921, 37.851532",2023-11-08,Organic,Rain-fed,No,0,17,19,0,0,5,4,2,10,0,0,0,850,609,706,240,200,120,282,268,244,0,0,0,57,-1.839921,37.851532
F139,Brenda Jimenez,Emali,"-1.829024, 37.59021",2023-11-25,Organic,Irrigated,No,32,0,60,0,0,0,30,38,41,0,0,0,1260,1860,3000,0,0,0,2465,1326,1686,0,0,0,201,-1.829024,37.59021
F140,Elizabeth Summers,Ukia,"-2.296609, 38.029213",2024-12-07,Organic,Irrigated,Yes,34,0,0,41,35,0,12,0,50,16,21,18,0,0,0,525,350,350,1950,2300,1650,924,849,669,227,-2.296609,38.029213
F141,Eric Sutton,Emali,"-1.27626, 37.849133",2022-05-11,Conventional,Rain-fed,No,0,18,50,3,48,0,5,55,40,0,0,31,1694,2516,2170,720,576,240,1490,2620,2215,837,1023,837,250,-1.27626,37.849133
F142,Elizabeth Phillips,Wote,"-2.457349, 37.99084",2025-04-06,Conventional,Rain-fed,No,33,4,3,10,10,0,24,12,8,0,0,0,182,180,89,120,50,70,296,496,324,0,0,0,104,-2.457349,37.99084
F143,Karen Harvey,Kitise,"-1.202445, 37.853849",2023-05-24,Organic,Irrigated,Yes,35,9,23,0,0,0,13,0,4,13,9,4,1060,693,1126,0,0,0,108,160,172,169,258,331,110,-1.202445,37.853849
F144,Daniel Lucas,Kibwezi,"-1.846261, 37.458486",2023-02-23,Conventional,Irrigated,No,7,3,20,0,5,11,3,0,0,0,6,9,958,941,1030,435,350,369,0,0,0,294,414,375,64,-1.846261,37.458486
F145,Seth Weber,Kalawa,"-2.258846, 37.226026",2023-09-09,Organic,Rain-fed,No,28,7,56,0,18,1,3,8,20,0,0,0,1750,2058,2884,256,302,148,960,768,604,0,0,0,141,-2.258846,37.226026
F146,Crystal Morse DDS,Nzaui,"-1.376466, 38.072001",2024-09-18,Organic,Irrigated,No,0,13,12,0,3,6,5,7,0,4,0,5,685,583,528,204,237,174,70,56,56,140,160,220,55,-1.376466,38.072001
F147,Jordan Lopez,Kyemole,"-2.241152, 37.952623",2025-12-23,Conventional,Irrigated,No,26,24,2,28,0,25,0,2,9,2,0,19,278,344,192,900,1050,900,426,364,242,551,608,513,137,-2.241152,37.952623
F148,Kara Shea,Ukia,"-2.058122, 38.066093",2024-08-05,Conventional,Rain-fed,Yes,23,7,11,0,0,17,5,0,5,9,0,0,487,415,514,340,459,799,135,175,215,0,0,0,77,-2.058122,38.066093
F149,Micheal Nash,Makindu,"-1.323925, 38.102377",2021-12-23,Organic,Irrigated,No,0,13,82,0,21,0,35,49,0,21,5,4,1800,3121,3984,210,210,231,245,735,343,186,198,137,230,-1.323925,38.102377
F150,Samantha Munoz,Kathonzweni,"-1.342846, 38.035341",2025-09-16,Organic,Rain-fed,Yes,0,24,1,8,0,0,0,5,13,6,9,12,204,199,187,0,0,0,454,552,659,411,708,513,78,-1.342846,38.035341
F151,Mrs. Colleen Meyer,Thange,"-1.933692, 37.974391",2022-06-02,Conventional,Rain-fed,No,19,14,6,7,0,7,6,5,0,0,0,0,294,326,360,231,196,343,65,55,55,0,0,0,64,-1.933692,37.974391
F152,Brooke Smith,Kibwezi,"-2.385471, 37.730083",2024-04-17,Conventional,Rain-fed,No,15,27,0,17,6,11,11,2,13,0,0,0,189,270,243,408,324,307,510,365,488,0,0,0,102,-2.385471,37.730083
F153,Jennifer Neal,Mtito Andei,"-1.32581, 37.886384",2024-12-26,Conventional,Irrigated,Yes,0,0,67,19,37,20,21,14,42,0,0,0,1340,3015,3015,1187,819,716,1694,2072,1190,0,0,0,220,-1.32581,37.886384
F154,Dave Novak,Kalawa,"-1.302781, 38.193343",2022-10-31,Conventional,Irrigated,No,0,67,14,0,17,35,0,7,45,0,0,0,752,1341,1523,1918,939,942,1223,2306,1025,0,0,0,185,-1.302781,38.193343
F155,Emily Carrillo,Mbooni,"-1.583057, 37.677266",2025-05-07,Conventional,Irrigated,Yes,30,23,8,7,17,12,0,6,0,0,0,0,385,531,526,561,627,458,90,48,30,0,0,0,103,-1.583057,37.677266
F156,Brooke Tyler,Kibwezi,"-2.340094, 37.478253",2025-01-12,Conventional,Rain-fed,No,24,59,0,11,0,22,3,0,33,0,0,0,649,531,885,748,616,792,726,726,1122,0,0,0,152,-2.340094,37.478253
F157,Kimberly Peterson,Kilungu,"-1.434955, 38.105839",2023-06-24,Conventional,Rain-fed,No,0,38,72,45,0,52,0,22,10,0,0,0,3108,2748,2498,2392,1768,1924,480,694,748,0,0,0,239,-1.434955,38.105839
F158,John Wright,Kasikeu,"-1.940735, 38.09083",2021-03-12,Organic,Rain-fed,Yes,1,5,43,0,9,37,8,22,4,0,3,17,1014,1537,2157,1357,988,1079,312,328,244,514,657,418,149,-1.940735,38.09083
F159,Mary George,Kalawa,"-2.078601, 38.079258",2022-12-08,Conventional,Irrigated,Yes,55,0,46,32,26,6,0,0,0,0,0,0,1886,1104,1288,328,334,458,0,0,0,0,0,0,165,-2.078601,38.079258
F160,Jennifer Guzman,Nzaui,"-1.728403, 37.866568",2023-02-20,Conventional,Rain-fed,No,19,14,16,22,10,6,7,8,22,1,0,3,580,780,508,342,256,386,946,876,802,90,141,123,128,-1.728403,37.866568
F161,Matthew Ramirez,Sultan Hamud,"-1.21093, 38.197424",2025-06-18,Conventional,Irrigated,No,0,9,49,17,2,0,34,11,0,0,30,1,1213,1507,1939,14,20,16,55,154,143,196,303,256,153,-1.21093,38.197424
F162,Edward Guerra,Ukia,"-2.310994, 37.551884",2023-04-25,Conventional,Rain-fed,No,13,12,43,20,23,22,0,21,25,0,0,0,1479,1054,1577,1172,848,1049,847,1419,1177,0,0,0,179,-2.310994,37.551884
F163,Aaron Strickland,Kyemole,"-1.864757, 37.817537",2023-07-03,Organic,Rain-fed,Yes,3,14,9,17,29,35,4,19,60,0,0,0,309,418,486,1650,1329,1825,1526,1965,1466,0,0,0,190,-1.864757,37.817537
F164,Richard Robertson,Mtito Andei,"-2.473693, 37.348094",2024-06-22,Conventional,Irrigated,Yes,19,18,0,4,0,11,0,1,2,0,0,0,162,270,126,308,308,550,56,48,96,0,0,0,55,-2.473693,37.348094
F165,Melissa Henderson,Kibwezi,"-2.433138, 38.024567",2020-12-25,Organic,Irrigated,Yes,52,42,37,0,42,0,0,1,20,0,0,0,1804,1915,1103,588,378,462,468,567,605,0,0,0,194,-2.433138,38.024567
F166,Cheryl Wright,Mbooni,"-1.247389, 37.985521",2021-01-15,Conventional,Irrigated,Yes,68,21,18,50,0,17,0,0,37,0,26,0,1137,648,1047,578,510,595,1036,740,888,286,260,234,237,-1.247389,37.985521
F167,Joshua Diaz,Nguu,"-1.392464, 37.887189",2022-11-16,Conventional,Rain-fed,Yes,43,52,57,0,0,0,0,0,8,0,0,0,1628,3147,3179,0,0,0,280,184,368,0,0,0,160,-1.392464,37.887189
F168,James Robinson,Kyemole,"-1.561355, 37.81487",2022-12-31,Organic,Irrigated,Yes,37,60,6,0,22,42,0,1,19,0,22,0,906,966,1056,2044,1254,1560,388,596,946,286,330,110,209,-1.561355,37.81487
F169,Jessica Brown,Nzaui,"-1.757294, 37.496116",2021-12-06,Conventional,Rain-fed,No,0,29,25,28,4,6,1,0,1,10,4,6,985,848,1448,238,210,260,20,35,41,350,260,292,114,-1.757294,37.496116
F170,Richard Smith,Wote,"-2.401576, 37.460106",2022-02-22,Organic,Rain-fed,No,36,13,76,6,14,8,0,14,33,0,0,0,2371,3387,2321,430,436,408,1771,1186,1008,0,0,0,200,-2.401576,37.460106
F171,Colin Fisher,Kilungu,"-2.379105, 37.323066",2022-10-07,Organic,Irrigated,No,55,5,69,40,12,0,0,14,0,0,0,0,2307,2342,2519,168,168,168,70,70,84,0,0,0,195,-2.379105,37.323066
F172,Richard Ward,Kathonzweni,"-1.996678, 37.397948",2022-05-01,Conventional,Irrigated,No,41,39,16,9,17,5,46,1,56,0,0,0,995,1275,785,311,232,407,1862,2643,1524,0,0,0,230,-1.996678,37.397948
F173,Renee Weaver,Nguu,"-1.544633, 37.398179",2023-12-30,Organic,Irrigated,No,35,9,0,16,22,12,19,0,0,0,2,5,54,126,54,454,440,590,0,0,0,136,146,197,120,-1.544633,37.398179
F174,Christine Nguyen,Kathonzweni,"-1.731101, 37.517898",2020-05-02,Organic,Rain-fed,Yes,30,32,50,0,0,7,0,18,27,0,0,0,2124,2574,2038,175,238,154,630,1161,1170,0,0,0,164,-1.731101,37.517898
F175,Jacob Nguyen,Nzaui,"-2.111718, 37.986509",2021-10-25,Conventional,Rain-fed,Yes,67,0,39,31,12,36,0,28,0,0,0,0,1560,1014,975,1332,1596,1032,140,280,196,0,0,0,213,-2.111718,37.986509
F176,Amber Bowman,Ukia,"-2.247086, 37.780256",2024-12-29,Organic,Irrigated,Yes,45,71,0,25,2,39,28,0,17,0,0,0,923,994,994,843,1266,1473,340,374,357,0,0,0,227,-2.247086,37.780256
F177,Michael Hunter,Thange,"-1.428435, 37.399566",2025-06-14,Organic,Irrigated,Yes,9,0,19,15,8,0,0,0,5,7,1,0,380,608,456,120,48,112,215,235,115,13,7,8,64,-1.428435,37.399566
F178,Courtney Thompson,Kalawa,"-2.109367, 37.311764",2020-04-08,Organic,Irrigated,No,5,8,23,8,3,0,12,8,0,1,7,0,609,963,779,18,36,24,56,56,96,42,84,70,75,-2.109367,37.311764
F179,William Zimmerman,Kalawa,"-2.098498, 37.628804",2022-04-02,Conventional,Irrigated,Yes,17,8,40,6,10,12,12,11,0,0,0,0,1704,1952,1440,500,440,362,143,143,165,0,0,0,116,-2.098498,37.628804
F180,Cynthia Rodriguez,Nziu,"-2.328095, 37.551572",2023-10-12,Conventional,Irrigated,No,0,31,28,0,19,10,0,18,0,0,0,0,1293,1047,1085,487,452,565,90,108,180,0,0,0,106,-2.328095,37.551572
F181,James Jefferson,Nziu,"-1.750211, 38.084479",2020-04-03,Organic,Rain-fed,No,0,18,0,9,7,24,11,14,19,6,7,0,252,198,162,722,1051,1249,952,762,953,63,98,91,115,-1.750211,38.084479
F182,Stephen Myers,Kitise,"-2.202049, 37.86957",2025-03-08,Conventional,Irrigated,Yes,0,21,2,24,17,17,0,19,0,0,0,0,188,266,253,799,935,901,228,190,209,0,0,0,100,-2.202049,37.86957
F183,Philip Cabrera,Nziu,"-1.823918, 37.948984",2021-06-27,Conventional,Rain-fed,Yes,0,7,13,13,28,12,17,32,6,30,26,28,408,406,544,572,748,492,572,698,418,1482,826,1174,212,-1.823918,37.948984
F184,Stephen Bryan,Wote,"-2.156576, 37.438076",2024-03-29,Organic,Irrigated,No,0,1,25,4,10,19,10,0,2,0,0,0,606,560,531,719,772,604,62,40,58,0,0,0,71,-2.156576,37.438076
F185,Daniel Roberts,Kathonzweni,"-2.379647, 38.077093",2024-08-09,Conventional,Rain-fed,No,13,10,11,44,26,28,22,39,24,0,0,0,500,492,524,768,1626,856,1401,1353,810,0,0,0,217,-2.379647,38.077093
F186,Randy Watkins,Kitise,"-2.040955, 37.926079",2025-08-31,Organic,Irrigated,No,0,77,0,38,29,12,21,11,0,12,0,14,616,770,770,585,987,1011,88,77,55,322,588,560,214,-2.040955,37.926079
F187,Stephanie Parks,Kalawa,"-1.455863, 37.943081",2020-01-14,Organic,Rain-fed,No,50,10,13,0,27,0,15,0,20,15,9,0,737,714,561,270,189,351,460,1000,540,99,108,63,159,-1.455863,37.943081
F188,Derek Nielsen,Kilungu,"-1.274657, 37.767603",2024-02-09,Conventional,Irrigated,Yes,3,9,19,0,15,7,0,2,0,8,0,8,831,975,963,312,341,547,22,20,26,304,392,304,71,-1.274657,37.767603
F189,Carly Berg,Kalawa,"-1.574942, 37.854404",2022-02-05,Conventional,Irrigated,No,55,0,52,0,11,44,41,18,20,0,0,0,1612,1092,1404,2321,2189,1265,672,1270,1084,0,0,0,241,-1.574942,37.854404
F190,John Cherry,Kibwezi,"-1.603755, 37.285891",2025-03-20,Organic,Irrigated,Yes,19,17,64,17,28,0,28,0,25,11,0,19,1501,2043,3289,392,224,308,750,825,1225,513,950,418,228,-1.603755,37.285891
F191,Theresa Austin,Thange,"-2.303782, 37.447129",2024-10-22,Organic,Irrigated,Yes,44,62,9,10,0,2,0,3,0,9,24,19,1048,1182,1149,40,94,70,27,15,42,543,1006,1124,182,-2.303782,37.447129
F192,Laura Horton,Kasikeu,"-1.224943, 37.820783",2020-01-02,Organic,Rain-fed,No,57,55,0,4,29,34,0,29,0,0,0,0,605,825,660,1970,1412,2033,348,435,261,0,0,0,208,-1.224943,37.820783
F193,Cindy Salazar,Nguu,"-1.650355, 37.413159",2021-04-25,Conventional,Irrigated,No,11,0,17,13,9,14,11,0,3,0,0,0,391,833,578,770,803,605,69,120,87,0,0,0,78,-1.650355,37.413159
F194,Justin Nelson,Mtito Andei,"-2.362375, 37.925994",2023-11-27,Conventional,Rain-fed,Yes,4,10,30,3,15,0,0,18,12,0,0,0,1020,1450,1480,150,75,195,816,672,606,0,0,0,92,-2.362375,37.925994
F195,Sean Kane,Kasikeu,"-1.825302, 37.938291",2025-01-29,Organic,Rain-fed,No,13,35,0,0,10,19,13,5,0,0,0,0,420,175,490,853,773,852,40,45,40,0,0,0,95,-1.825302,37.938291
F196,David Lopez,Kilungu,"-2.029428, 37.466801",2020-12-09,Conventional,Irrigated,Yes,0,30,7,12,18,26,3,24,12,0,0,0,472,353,719,736,1080,672,588,636,576,0,0,0,132,-2.029428,37.466801
F197,Patricia Kelly,Nziu,"-2.138909, 37.331129",2020-12-23,Organic,Rain-fed,Yes,14,27,0,2,0,6,0,18,2,0,0,13,216,189,135,144,192,288,318,280,234,650,533,650,82,-2.138909,37.331129
F198,Patricia Donovan,Nziu,"-1.276944, 38.020183",2025-04-24,Organic,Rain-fed,No,15,8,6,0,3,8,0,5,5,0,0,0,292,320,346,362,370,280,285,270,225,0,0,0,50,-1.276944,38.020183
F199,James Gregory,Kyemole,"-2.014268, 37.604747",2021-03-25,Conventional,Rain-fed,No,20,0,65,32,10,32,0,4,0,0,0,0,2470,2210,2080,1080,1282,770,28,52,52,0,0,0,163,-2.014268,37.604747
F200,Breanna Martinez,Nzaui,"-1.252814, 37.484903",2023-09-01,Organic,Irrigated,Yes,14,4,29,17,9,19,18,0,7,0,0,0,901,1080,1221,629,1040,782,280,168,308,0,0,0,117,-1.252814,37.484903
F201,Lori Mcintosh,Thange,"-1.642441, 37.248635",2025-02-05,Conventional,Rain-fed,Yes,23,1,25,0,6,0,6,0,2,0,0,0,1235,757,1265,54,36,66,82,88,48,0,0,0,63,-1.642441,37.248635
F202,Ronald Gilbert,Ukia,"-1.757167, 38.079249",2020-10-18,Organic,Irrigated,No,27,7,0,26,48,9,20,4,52,0,0,0,56,91,63,861,978,546,1140,1748,1708,0,0,0,193,-1.757167,38.079249
F203,Michael Adkins,Kasikeu,"-1.886688, 37.825303",2020-01-26,Organic,Irrigated,Yes,7,74,19,7,26,0,39,19,14,0,0,0,1745,1477,1428,208,234,130,806,684,722,0,0,0,205,-1.886688,37.825303
F204,Jessica King,Nzaui,"-1.677391, 38.029542",2020-10-10,Organic,Rain-fed,Yes,1,8,0,4,24,13,15,11,15,0,0,0,56,104,104,665,819,593,860,698,863,0,0,0,91,-1.677391,38.029542
F205,Hannah Goodwin,Sultan Hamud,"-1.491465, 37.856244",2024-05-06,Conventional,Rain-fed,No,16,11,0,0,0,3,1,20,11,0,11,7,143,154,165,66,138,144,373,596,517,269,296,347,80,-1.491465,37.856244
F206,Brenda Cervantes,Mbooni,"-1.61411, 38.100431",2022-01-06,Conventional,Rain-fed,No,45,42,0,53,35,2,39,0,19,15,0,0,546,462,588,442,369,356,817,874,817,0,0,0,250,-1.61411,38.100431
F207,Frank Reed,Kibwezi,"-1.259603, 38.07924",2024-04-13,Conventional,Irrigated,No,12,3,4,4,8,3,2,10,0,9,6,0,167,143,137,213,226,229,80,70,50,66,90,72,61,-1.259603,38.07924
F208,Thomas Davis,Nziu,"-2.089746, 37.871998",2022-05-25,Organic,Rain-fed,Yes,33,0,1,3,13,20,0,0,16,6,0,6,30,47,43,977,623,1011,448,544,752,204,156,252,98,-2.089746,37.871998
F209,Michael Edwards,Sultan Hamud,"-1.606194, 38.131038",2024-04-19,Organic,Irrigated,No,60,48,13,26,26,30,0,35,0,0,0,0,766,926,552,1164,1532,1022,210,175,315,0,0,0,238,-1.606194,38.131038
F210,Eric Sweeney,Nzaui,"-2.081137, 38.102225",2025-07-24,Conventional,Rain-fed,Yes,37,0,0,21,3,13,11,2,20,0,0,0,0,0,0,628,486,478,592,724,586,0,0,0,107,-2.081137,38.102225
F211,Kelsey Oliver,Mbooni,"-2.452823, 38.038775",2022-02-07,Organic,Irrigated,Yes,0,60,23,0,25,19,17,17,0,0,0,0,1433,1755,1557,866,705,1062,221,153,221,0,0,0,161,-2.452823,38.038775
F212,Anne Martinez,Kyemole,"-2.137502, 37.904644",2022-11-01,Conventional,Rain-fed,Yes,51,24,0,25,23,0,34,12,20,13,0,12,240,312,120,345,322,299,812,1104,528,432,360,432,214,-2.137502,37.904644
F213,David Ashley,Kilungu,"-1.802132, 37.811156",2020-05-02,Organic,Irrigated,No,4,17,25,0,9,7,11,0,0,0,1,0,1438,945,1096,425,357,330,0,0,0,7,8,13,74,-1.802132,37.811156
F214,Jill Williams,Mbooni,"-1.923024, 37.564528",2025-09-15,Organic,Rain-fed,Yes,63,0,34,19,0,0,31,27,20,28,0,0,884,714,1054,0,0,0,1142,1149,1010,0,0,0,222,-1.923024,37.564528
F215,Stephanie Luna,Wote,"-1.277567, 38.043997",2024-12-27,Organic,Irrigated,Yes,0,25,0,16,1,4,3,0,18,20,20,0,200,275,175,191,155,94,576,504,576,180,140,140,107,-1.277567,38.043997
F216,Michael Boone,Kasikeu,"-2.073216, 37.932628",2022-12-06,Organic,Irrigated,No,61,8,28,22,36,0,6,0,9,4,0,21,700,1104,1328,504,432,360,378,414,198,1029,693,672,195,-2.073216,37.932628
F217,Joshua Wagner,Kasikeu,"-2.431861, 38.007414",2025-04-11,Conventional,Irrigated,No,4,57,49,10,9,12,0,1,23,0,0,0,2449,2170,2072,345,621,336,1163,862,676,0,0,0,165,-2.431861,38.007414
F218,Jennifer Ballard,Kilungu,"-2.026482, 38.115986",2021-05-28,Organic,Irrigated,No,38,38,33,0,3,7,17,11,0,0,2,0,1129,1959,1639,207,354,213,121,77,132,16,28,24,149,-2.026482,38.115986
F219,Joshua Williams,Nziu,"-1.557773, 37.605122",2025-03-07,Organic,Rain-fed,Yes,9,0,32,0,8,12,26,5,36,7,8,18,896,1248,1248,508,516,352,997,1794,1752,654,904,840,161,-1.557773,37.605122
F220,Katherine Cuevas,Kilungu,"-1.23079, 37.993426",2022-07-04,Organic,Rain-fed,Yes,11,20,11,7,7,11,5,0,16,0,0,0,730,731,607,470,588,318,736,528,448,0,0,0,88,-1.23079,37.993426
F221,Amber Hull,Thange,"-2.259262, 37.483084",2023-01-07,Conventional,Irrigated,Yes,65,2,0,47,1,18,20,49,13,0,0,0,18,28,10,871,655,617,1128,882,681,0,0,0,215,-2.259262,37.483084
F222,Christopher Lozano,Kilungu,"-1.207847, 37.481066",2024-11-08,Conventional,Rain-fed,Yes,18,7,26,0,4,33,0,36,10,0,0,0,1176,1311,815,774,919,1314,410,460,426,0,0,0,134,-1.207847,37.481066
F223,Brad Wu,Emali,"-1.244978, 37.851412",2022-04-28,Conventional,Irrigated,Yes,16,19,0,7,15,13,0,0,8,0,0,0,133,228,133,566,590,428,368,216,384,0,0,0,78,-1.244978,37.851412
F224,Nancy Kim,Ukia,"-1.332315, 37.688852",2025-01-02,Conventional,Irrigated,No,24,27,0,18,0,4,0,23,5,0,0,0,270,189,189,132,100,192,371,442,547,0,0,0,101,-1.332315,37.688852
F225,Vincent Alvarez,Makindu,"-1.415411, 37.561623",2020-11-30,Conventional,Rain-fed,Yes,3,72,45,0,17,0,9,14,23,0,0,0,2493,2160,2961,153,187,85,1023,668,986,0,0,0,183,-1.415411,37.561623
F226,Alicia Brown,Makindu,"-1.364873, 37.460043",2021-06-09,Organic,Rain-fed,Yes,62,0,18,16,24,25,0,6,31,0,0,0,468,648,630,890,1288,1016,1523,1301,1219,0,0,0,182,-1.364873,37.460043
F227,Felicia Mejia,Kilungu,"-2.186342, 37.410932",2023-04-02,Conventional,Rain-fed,Yes,0,34,46,7,26,1,21,33,0,0,0,0,1398,2490,1522,245,274,310,297,198,495,0,0,0,168,-2.186342,37.410932
F228,Laurie Madden,Kalawa,"-2.431227, 37.431487",2025-05-10,Organic,Irrigated,No,73,5,7,36,20,1,25,0,0,0,23,0,317,246,351,189,330,168,0,0,0,230,184,253,190,-2.431227,37.431487
F229,Curtis Johnson,Kilungu,"-1.95368, 37.411247",2022-08-23,Organic,Irrigated,No,0,17,53,17,35,19,5,0,18,0,0,0,2735,1408,2235,929,1087,717,612,756,702,0,0,0,164,-1.95368,37.411247
F230,April Jackson,Kilungu,"-2.32116, 37.52257",2024-09-19,Organic,Rain-fed,No,48,18,14,0,11,22,0,0,6,0,0,9,496,652,458,1210,770,814,240,294,300,297,198,207,128,-2.32116,37.52257
F231,Kiara Martinez,Kyemole,"-1.990854, 37.849164",2024-08-10,Conventional,Irrigated,No,21,23,28,13,0,12,5,21,0,4,0,0,1090,1123,1409,396,348,252,210,126,231,0,0,0,127,-1.990854,37.849164
F232,Sarah West,Nzaui,"-1.902467, 37.525919",2021-07-09,Conventional,Irrigated,Yes,64,12,67,1,14,21,0,0,0,0,0,15,3245,2879,2056,1064,560,1162,0,0,0,660,495,630,194,-1.902467,37.525919
F233,Michael Barrett,Kyemole,"-1.768596, 37.433365",2024-09-05,Organic,Rain-fed,Yes,11,2,11,11,4,0,7,4,2,0,0,5,414,304,270,48,52,32,106,108,116,180,150,210,57,-1.768596,37.433365
F234,Danny Tyler,Nzaui,"-1.572201, 37.56469",2021-12-14,Organic,Rain-fed,Yes,21,45,29,0,14,3,0,0,0,0,0,0,1452,1327,1877,330,180,238,0,0,0,0,0,0,112,-1.572201,37.56469
F235,Melanie Bates,Wote,"-2.183703, 37.561239",2021-12-13,Conventional,Irrigated,Yes,27,4,18,4,5,8,21,0,0,6,9,9,650,608,848,291,411,335,0,0,0,441,495,333,111,-2.183703,37.561239
F236,Gregory Rojas,Kibwezi,"-2.101177, 37.655078",2021-02-27,Conventional,Irrigated,Yes,0,15,42,0,20,8,24,0,22,7,0,16,1638,1671,2157,604,300,556,902,550,616,544,368,336,154,-2.101177,37.655078
F237,Rachel Choi,Mbooni,"-1.935095, 37.40856",2024-10-23,Conventional,Rain-fed,Yes,31,0,9,0,21,20,3,15,23,0,0,0,351,342,432,714,834,705,686,679,1216,0,0,0,122,-1.935095,37.40856
F238,Alison Brown,Kathonzweni,"-2.312952, 37.963182",2020-05-27,Organic,Rain-fed,Yes,22,35,12,30,50,6,3,11,0,22,3,37,994,699,838,922,988,930,99,88,66,1720,1572,764,231,-2.312952,37.963182
F239,Brandon Jensen,Kilungu,"-2.033848, 37.511503",2021-08-02,Conventional,Rain-fed,No,1,4,7,13,5,3,7,19,24,0,0,0,287,399,234,105,110,161,842,1389,914,0,0,0,83,-2.033848,37.511503
F240,Joshua King,Ukia,"-1.258648, 37.606026",2024-09-19,Conventional,Rain-fed,Yes,58,41,0,25,0,0,35,43,13,0,0,0,615,205,205,0,0,0,914,955,540,0,0,0,215,-1.258648,37.606026
F241,Stephen Harris,Kilungu,"-2.398815, 37.540753",2025-03-30,Conventional,Irrigated,Yes,0,16,8,15,1,0,0,10,0,0,5,5,432,352,360,11,10,8,60,70,140,260,175,190,60,-2.398815,37.540753
F242,Anna Walker,Kasikeu,"-1.381678, 37.994116",2020-05-19,Organic,Irrigated,Yes,0,86,27,33,0,7,24,41,32,0,0,0,2257,1660,1483,308,280,315,1863,1270,1841,0,0,0,250,-1.381678,37.994116
F243,Samantha Mitchell,Thange,"-1.540822, 37.610023",2024-01-19,Organic,Irrigated,Yes,44,24,73,5,20,43,40,0,0,0,0,0,1580,2237,3207,1166,1083,2000,0,0,0,0,0,0,249,-1.540822,37.610023
F244,Heather Walker,Kyemole,"-1.882543, 37.673278",2023-03-31,Conventional,Rain-fed,No,18,0,32,17,19,18,0,25,8,0,0,0,1280,1312,1248,1128,984,1038,514,482,351,0,0,0,137,-1.882543,37.673278
F245,Brendan Walker,Nziu,"-2.055583, 37.360612",2020-06-15,Conventional,Rain-fed,No,8,6,9,0,2,0,8,2,6,4,4,1,294,237,384,30,20,28,146,274,220,82,61,64,50,-2.055583,37.360612
F246,Wendy Logan,Nziu,"-1.626778, 37.646206",2020-10-30,Organic,Irrigated,No,12,54,46,6,0,22,0,5,9,0,0,0,1650,2006,1512,682,726,1100,417,357,397,0,0,0,154,-1.626778,37.646206
F247,Brian Simpson,Kibwezi,"-2.424404, 37.570956",2024-06-21,Conventional,Rain-fed,Yes,3,21,11,1,3,0,0,4,9,0,0,0,488,682,409,27,24,33,322,465,317,0,0,0,52,-2.424404,37.570956
F248,Joshua Price,Kalawa,"-1.993398, 37.224972",2025-01-14,Organic,Rain-fed,Yes,52,2,0,66,59,0,34,0,15,0,0,0,22,16,22,354,413,885,600,525,675,0,0,0,228,-1.993398,37.224972
F249,Kenneth Bright,Nguu,"-1.339623, 37.895334",2025-12-05,Organic,Irrigated,Yes,20,15,17,11,31,18,5,32,32,0,0,0,633,1058,738,788,644,734,1120,1984,1664,0,0,0,181,-1.339623,37.895334
F250,Miss Nicole Pitts DDS,Nguu,"-1.6017, 38.024943",2024-12-04,Conventional,Irrigated,Yes,19,45,25,31,0,0,38,22,15,0,0,2,1690,1415,1780,0,0,0,743,895,845,80,90,40,197,-1.6017,38.024943
F251,Brian Jones,Thange,"-1.665338, 37.849266",2023-11-07,Conventional,Rain-fed,No,14,22,65,4,66,4,0,0,68,0,0,0,2605,2604,2778,722,882,476,1632,1632,2448,0,0,0,243,-1.665338,37.849266
F252,Anthony Garcia,Kasikeu,"-1.888786, 37.580407",2021-01-22,Organic,Irrigated,Yes,59,13,15,34,34,17,0,24,29,20,0,2,627,685,917,986,918,884,1520,902,922,84,90,58,247,-1.888786,37.580407
F253,Karen Mckay,Thange,"-1.799951, 37.44121",2021-05-24,Conventional,Irrigated,Yes,9,46,8,0,16,3,22,3,2,0,0,0,1012,628,964,168,298,177,120,72,119,0,0,0,109,-1.799951,37.44121
F254,David Wilkins,Ukia,"-1.316326, 38.080166",2021-12-03,Organic,Rain-fed,Yes,26,0,25,3,10,0,15,6,12,0,0,0,875,500,675,120,60,130,582,582,318,0,0,0,97,-1.316326,38.080166
F255,Nathaniel Mitchell,Nziu,"-2.319709, 37.245655",2024-10-24,Organic,Rain-fed,No,44,37,0,0,9,24,15,4,0,0,0,0,481,222,222,885,693,1248,52,36,32,0,0,0,133,-2.319709,37.245655
F256,Chad Martin,Thange,"-1.295475, 37.441576",2021-05-20,Conventional,Rain-fed,No,20,46,9,0,6,2,36,1,22,0,0,0,813,896,627,132,134,166,952,603,1067,0,0,0,142,-1.295475,37.441576
F257,Justin Lee,Kilungu,"-2.44588, 37.767065",2023-08-15,Conventional,Rain-fed,No,17,2,5,0,4,13,12,18,6,0,0,0,143,170,181,641,361,620,294,318,426,0,0,0,77,-2.44588,37.767065
F258,Thomas Murray,Kibwezi,"-1.702473, 37.218816",2020-08-17,Organic,Rain-fed,No,50,76,13,0,3,19,11,0,20,0,0,0,1447,1378,1224,897,841,527,480,940,440,0,0,0,192,-1.702473,37.218816
F259,Cynthia Thompson,Kalawa,"-2.108886, 37.520651",2022-03-03,Organic,Rain-fed,No,55,29,2,29,0,0,21,19,22,0,0,0,225,207,224,0,0,0,1029,809,1104,0,0,0,177,-2.108886,37.520651
F260,Jessica Howard,Kathonzweni,"-2.157508, 37.400089",2025-04-23,Conventional,Rain-fed,No,0,33,80,0,8,34,38,22,0,0,0,0,4217,3262,3558,872,902,1576,308,132,242,0,0,0,215,-2.157508,37.400089
F261,Lee Schroeder,Sultan Hamud,"-1.89045, 37.576052",2022-06-30,Conventional,Irrigated,No,47,0,26,0,10,11,11,20,0,0,0,11,1066,832,1274,380,385,391,280,140,180,319,484,473,136,-1.89045,37.576052
F262,Kimberly Best,Mbooni,"-1.298318, 38.082323",2023-04-27,Organic,Rain-fed,Yes,1,15,10,0,5,3,12,0,0,0,7,0,540,325,715,210,98,159,0,0,0,105,77,105,53,-1.298318,38.082323
F263,Melissa Landry,Kyemole,"-2.317758, 37.518384",2020-08-08,Conventional,Rain-fed,No,21,0,15,0,4,25,0,4,9,5,8,3,555,480,675,777,1027,1231,459,315,285,217,217,183,94,-2.317758,37.518384
F264,Dustin Ayers,Nguu,"-2.078463, 38.122961",2024-11-09,Organic,Rain-fed,Yes,14,5,10,0,9,9,9,0,1,0,0,0,305,530,510,459,585,441,38,42,35,0,0,0,57,-2.078463,38.122961
F265,Kaitlyn Powell,Wote,"-2.343051, 38.103872",2023-05-12,Organic,Rain-fed,No,63,18,18,14,28,0,47,35,0,8,12,0,666,828,954,336,280,420,350,525,385,144,84,60,243,-2.343051,38.103872
F266,Stephen Roberson DDS,Nzaui,"-2.353164, 37.545372",2021-04-20,Conventional,Irrigated,Yes,7,0,36,30,0,1,44,35,32,5,15,0,1728,1368,864,29,29,36,1642,1400,1540,210,75,165,205,-2.353164,37.545372
F267,Jose Houston,Kasikeu,"-2.104435, 37.316156",2025-12-17,Conventional,Rain-fed,No,0,35,24,31,5,20,37,0,34,0,0,0,1356,1083,867,840,1075,540,1360,1496,816,0,0,0,186,-2.104435,37.316156
F268,Gregory Davis,Nguu,"-2.432648, 37.433874",2020-09-16,Conventional,Rain-fed,Yes,43,0,5,6,0,11,17,0,14,0,4,3,235,240,235,374,385,550,378,364,462,184,163,157,103,-2.432648,37.433874
F269,James Bailey,Mtito Andei,"-2.27076, 37.473919",2022-10-01,Conventional,Irrigated,Yes,8,74,0,55,48,32,0,9,0,0,0,0,814,888,518,1584,1904,1936,99,63,135,0,0,0,226,-2.27076,37.473919
F270,Michelle Armstrong,Kilungu,"-1.345164, 37.354533",2025-03-14,Organic,Rain-fed,Yes,38,47,2,0,15,10,8,0,22,0,0,0,391,519,442,675,440,300,968,880,968,0,0,0,142,-1.345164,37.354533
F271,Jessica Barnett,Nzaui,"-1.82843, 37.389671",2024-07-27,Organic,Rain-fed,Yes,0,44,40,0,28,32,0,0,0,21,0,0,2540,1316,1900,1188,1336,1808,0,0,0,0,0,0,165,-1.82843,37.389671
F272,Dr. Jennifer Wheeler,Sultan Hamud,"-2.11574, 37.525554",2022-01-01,Conventional,Rain-fed,No,0,55,18,0,6,23,3,0,25,9,19,0,1634,872,981,640,1048,1044,925,1100,525,285,152,95,158,-2.11574,37.525554
F273,Cathy Butler,Makindu,"-1.871981, 37.406086",2025-08-09,Conventional,Rain-fed,Yes,0,31,24,22,1,0,0,19,24,11,6,0,1287,1267,1562,8,15,15,1125,1074,1409,90,78,30,138,-1.871981,37.406086
F274,Heather Wright,Nziu,"-2.113988, 37.628937",2025-04-01,Organic,Irrigated,Yes,17,16,20,0,8,0,0,5,2,0,0,0,696,900,604,72,64,48,163,116,134,0,0,0,68,-2.113988,37.628937
F275,Charles Flores,Kalawa,"-1.956793, 37.538177",2021-04-06,Conventional,Irrigated,Yes,47,41,34,17,0,32,27,35,5,0,0,0,960,1940,1723,1376,672,1216,575,675,490,0,0,0,238,-1.956793,37.538177
F276,Allen Stewart,Ukia,"-1.464996, 37.276669",2022-08-18,Organic,Rain-fed,Yes,0,47,71,22,0,32,37,0,21,8,0,0,3428,2554,2908,1440,1312,960,1050,588,630,0,0,0,238,-1.464996,37.276669
F277,Anthony Russell,Mtito Andei,"-2.040445, 37.43974",2023-10-01,Conventional,Irrigated,Yes,42,27,0,0,26,6,38,42,0,29,1,0,324,216,243,382,394,350,462,630,252,5,13,13,211,-2.040445,37.43974
F278,Kelli Hamilton,Emali,"-2.424826, 37.639755",2022-06-12,Organic,Irrigated,Yes,44,0,21,17,0,34,13,0,4,0,0,0,525,462,924,1564,1598,1700,136,80,116,0,0,0,133,-2.424826,37.639755
F279,Thomas Daniels,Nziu,"-2.015205, 37.478005",2024-07-09,Conventional,Irrigated,No,35,30,0,27,0,8,0,26,27,0,0,0,450,270,450,272,360,344,880,1396,1450,0,0,0,153,-2.015205,37.478005
F280,Melissa Barton,Emali,"-1.653166, 37.998104",2023-09-04,Conventional,Irrigated,No,0,61,79,44,0,2,2,2,50,0,0,0,3860,4237,4014,46,98,74,1578,1062,1470,0,0,0,240,-1.653166,37.998104
F281,Chad Brown,Mtito Andei,"-1.346551, 37.401535",2022-10-17,Conventional,Rain-fed,No,59,66,31,24,20,0,0,0,0,9,16,5,1140,1404,1396,140,100,120,0,0,0,448,352,228,230,-1.346551,37.401535
F282,Kelly Rodriguez,Mtito Andei,"-1.957664, 38.14047",2022-07-19,Organic,Irrigated,Yes,0,50,47,0,36,26,1,0,17,0,0,13,2900,2245,1878,1040,1508,882,408,391,782,520,559,286,190,-1.957664,38.14047
F283,Kevin Garcia,Makindu,"-2.320144, 37.306013",2023-06-20,Organic,Irrigated,No,83,13,30,46,16,0,0,2,53,0,0,0,1605,1605,734,192,240,208,1936,2462,1076,0,0,0,243,-2.320144,37.306013
F284,Michael Barrera,Kathonzweni,"-1.916103, 38.076631",2022-01-27,Conventional,Rain-fed,No,10,0,57,31,36,4,6,39,67,0,0,0,1767,1368,2736,520,572,544,3360,2992,2679,0,0,0,250,-1.916103,38.076631
F285,Blake Sanchez,Nzaui,"-1.263151, 38.026103",2021-06-21,Organic,Irrigated,No,15,37,80,27,1,41,0,12,25,0,0,0,3275,2019,2973,2057,1074,1113,1118,1172,793,0,0,0,238,-1.263151,38.026103
F286,Jeffrey Allen,Ukia,"-1.696612, 37.721858",2024-12-22,Conventional,Rain-fed,No,20,32,87,19,27,0,0,0,21,24,0,13,3237,4249,4052,324,243,135,924,1008,714,572,364,546,243,-1.696612,37.721858
F287,Hannah Snyder,Nziu,"-2.460435, 37.558492",2025-03-16,Conventional,Rain-fed,No,12,4,10,6,6,13,16,0,1,10,18,0,440,404,430,709,438,677,28,22,31,126,108,126,96,-2.460435,37.558492
F288,Dr. David Bond,Kitise,"-1.312274, 37.228571",2020-01-25,Conventional,Irrigated,Yes,23,45,60,30,1,38,0,0,8,0,0,0,3015,2685,3435,1185,1449,1533,176,232,296,0,0,0,205,-1.312274,37.228571
F289,Anthony Rogers,Mbooni,"-1.887031, 37.396298",2024-07-01,Conventional,Rain-fed,Yes,0,0,41,19,12,18,0,0,23,0,0,0,1927,1804,1189,780,960,1068,828,1150,713,0,0,0,113,-1.887031,37.396298
F290,Thomas Duke,Kalawa,"-2.34426, 37.379956",2025-10-23,Conventional,Irrigated,Yes,54,12,5,11,2,30,7,7,17,0,0,0,250,311,200,1014,792,1426,801,495,596,0,0,0,145,-2.34426,37.379956
F291,Jared Johnson,Ukia,"-1.222771, 37.599763",2022-03-04,Organic,Irrigated,No,0,45,5,8,1,6,19,0,29,17,10,0,680,655,430,241,133,267,870,1247,1073,130,110,150,140,-1.222771,37.599763
F292,Maria Anderson,Sultan Hamud,"-1.276607, 37.222117",2023-11-24,Organic,Irrigated,No,70,59,24,4,0,0,19,0,26,0,4,0,1437,799,1714,0,0,0,1170,754,1248,56,20,44,206,-1.276607,37.222117
F293,Ashley Barnes,Kilungu,"-1.576014, 38.069474",2021-01-19,Organic,Irrigated,Yes,8,59,6,39,27,23,0,31,23,0,0,9,723,865,493,1501,829,1312,1015,1468,1247,216,450,369,225,-1.576014,38.069474
F294,Tyler Cook,Kalawa,"-2.421362, 37.23289",2024-05-23,Organic,Irrigated,Yes,17,0,1,9,6,19,1,26,20,0,0,0,31,29,32,844,770,692,1198,864,1178,0,0,0,99,-2.421362,37.23289
F295,Anna Spencer,Kathonzweni,"-1.21878, 38.073694",2025-01-13,Organic,Irrigated,No,1,40,25,4,15,0,11,0,6,0,0,0,1425,1280,1465,150,195,120,174,144,258,0,0,0,102,-1.21878,38.073694
F296,Sherry Watts,Kathonzweni,"-2.493469, 37.250958",2024-07-06,Organic,Rain-fed,Yes,0,16,27,0,2,7,17,0,12,2,0,0,942,743,727,366,340,271,324,600,588,0,0,0,83,-2.493469,37.250958
F297,Rachel Warren,Nziu,"-2.47611, 37.518758",2022-01-06,Organic,Rain-fed,Yes,7,0,35,0,18,0,4,26,17,0,0,0,1085,1260,1540,216,108,180,1058,762,803,0,0,0,107,-2.47611,37.518758
F298,Leslie Anderson,Mtito Andei,"-1.650048, 37.826917",2024-12-15,Conventional,Irrigated,No,29,8,53,24,37,12,39,31,1,0,0,0,1172,2216,2139,1131,715,473,180,495,476,0,0,0,234,-1.650048,37.826917
F299,Tyrone Black,Kyemole,"-2.298443, 37.462297",2025-03-01,Organic,Rain-fed,No,24,13,0,19,23,0,8,21,0,19,14,35,65,169,91,184,253,322,210,210,210,1260,1176,1330,176,-2.298443,37.462297
F300,Jamie Brewer,Thange,"-1.924454, 37.966339",2022-01-03,Conventional,Irrigated,Yes,3,8,26,7,0,0,0,10,7,0,5,3,1126,1290,928,0,0,0,442,277,337,206,145,162,69,-1.924454,37.966339
F301,William Davidson,Nguu,"-2.258488, 37.837792",2022-10-22,Organic,Irrigated,No,9,31,11,6,5,3,0,12,3,4,0,2,620,496,691,152,85,161,279,258,276,88,86,66,86,-2.258488,37.837792
F302,William Ho,Wote,"-1.832535, 37.826158",2025-03-28,Conventional,Irrigated,No,0,5,48,28,21,3,12,16,0,3,0,0,1596,1548,1422,237,393,279,240,240,208,0,0,0,136,-1.832535,37.826158
F303,Lisa Sutton,Emali,"-1.655, 37.886417",2025-09-19,Conventional,Irrigated,Yes,39,15,22,24,30,0,11,0,0,0,0,0,964,657,1191,240,390,360,0,0,0,0,0,0,141,-1.655,37.886417
F304,Michael Johnson,Nguu,"-2.447015, 37.538586",2023-11-07,Organic,Irrigated,No,16,16,3,4,2,7,0,0,8,0,1,0,296,251,149,294,313,170,392,336,336,10,12,7,57,-2.447015,37.538586
F305,Lisa Harris,Thange,"-1.727201, 37.68755",2020-01-17,Conventional,Irrigated,No,25,56,22,21,0,32,26,46,3,0,0,0,1382,1300,1552,1184,896,1024,661,697,776,0,0,0,231,-1.727201,37.68755
F306,Patricia Rodriguez,Kalawa,"-2.35739, 38.173116",2023-10-23,Organic,Rain-fed,No,20,9,22,0,3,13,29,39,3,20,25,8,1133,859,538,284,355,666,417,537,408,481,309,636,191,-2.35739,38.173116
F307,Dustin Watkins,Kathonzweni,"-1.665748, 37.293192",2022-03-22,Conventional,Rain-fed,No,63,47,0,0,0,33,28,31,0,0,11,4,517,282,235,1584,1155,792,403,372,434,197,365,234,217,-1.665748,37.293192
F308,John Beck,Makindu,"-1.470644, 38.010795",2023-08-21,Organic,Irrigated,Yes,50,47,95,0,0,0,0,39,16,0,0,0,4554,2419,2700,0,0,0,1009,609,856,0,0,0,247,-1.470644,38.010795
F309,Kelli Lewis,Thange,"-1.404697, 38.166204",2022-08-24,Conventional,Rain-fed,No,15,29,85,0,0,43,37,0,14,0,0,0,2871,3804,3236,1763,1634,946,294,420,364,0,0,0,223,-1.404697,38.166204
F310,Brandon Torres,Nzaui,"-2.176185, 37.338572",2024-07-18,Organic,Rain-fed,Yes,28,0,58,15,13,48,8,21,6,0,0,0,2146,1450,2436,2273,1509,1897,486,378,405,0,0,0,197,-2.176185,37.338572
F311,Nathan Crawford,Kalawa,"-1.623701, 37.205378",2020-04-16,Conventional,Irrigated,No,45,13,80,41,0,0,30,0,25,0,0,0,2504,1743,1905,0,0,0,875,1100,950,0,0,0,234,-1.623701,37.205378
F312,Dawn Ballard,Mtito Andei,"-1.993121, 37.439058",2022-02-25,Conventional,Rain-fed,No,24,23,0,13,0,18,0,13,6,0,0,0,230,138,161,522,774,864,339,320,360,0,0,0,97,-1.993121,37.439058
F313,Stephen Gamble,Kathonzweni,"-1.559989, 37.410742",2024-05-12,Conventional,Irrigated,Yes,43,28,11,16,0,3,33,14,0,0,0,0,527,421,733,93,66,132,112,98,210,0,0,0,148,-1.559989,37.410742
F314,Vanessa Durham,Nziu,"-2.019913, 37.698254",2022-09-17,Organic,Irrigated,No,24,23,1,0,19,1,1,17,30,12,7,0,163,379,200,292,126,283,882,1541,1383,70,105,84,135,-2.019913,37.698254
F315,Linda Nicholson,Kitise,"-2.041384, 38.082723",2025-09-04,Conventional,Rain-fed,Yes,1,65,5,26,0,0,0,65,51,0,0,37,755,545,1140,0,0,0,2333,2454,2838,1813,740,1554,250,-2.041384,38.082723
F316,Janice Pacheco,Emali,"-1.641416, 37.877205",2023-03-15,Conventional,Rain-fed,Yes,26,70,3,2,42,0,40,20,0,7,17,1,927,623,473,630,420,378,220,200,220,211,137,278,228,-1.641416,37.877205
F317,Colleen Howard,Thange,"-2.295017, 37.386524",2020-01-30,Conventional,Rain-fed,No,0,37,17,0,6,18,11,8,24,0,0,0,959,647,868,780,762,672,1136,632,928,0,0,0,121,-2.295017,37.386524
F318,Michelle Peterson,Makindu,"-2.33794, 37.660914",2020-04-26,Conventional,Irrigated,Yes,24,50,2,3,51,1,0,61,52,0,0,0,328,312,434,379,642,439,2057,3454,1969,0,0,0,244,-2.33794,37.660914
F319,Travis Cruz,Mtito Andei,"-1.248518, 37.471747",2022-01-13,Organic,Irrigated,No,17,4,17,9,13,5,0,0,0,0,0,13,732,906,784,240,274,271,0,0,0,520,533,546,78,-1.248518,37.471747
F320,Ronald Jones DDS,Kathonzweni,"-1.958184, 37.793916",2022-01-01,Conventional,Rain-fed,No,24,0,12,1,11,9,26,3,11,0,0,0,588,240,516,382,518,575,277,458,356,0,0,0,97,-1.958184,37.793916
F321,Samantha Green,Kilungu,"-1.745564, 38.095258",2022-12-24,Organic,Rain-fed,Yes,31,0,53,38,0,0,14,33,18,0,6,0,2332,1060,2067,0,0,0,1071,1077,1125,78,54,36,193,-1.745564,38.095258
F322,Wesley Nelson,Kitise,"-1.871715, 38.014201",2021-07-10,Organic,Irrigated,No,0,9,53,39,26,6,0,26,0,6,7,1,2617,2113,2678,324,294,594,312,338,234,134,127,83,173,-1.871715,38.014201
F323,Kenneth Holland,Kilungu,"-2.238691, 37.585517",2020-09-22,Organic,Rain-fed,Yes,51,1,19,7,0,0,22,21,3,0,0,0,750,601,405,0,0,0,360,207,312,0,0,0,124,-2.238691,37.585517
F324,Samuel Hudson,Kathonzweni,"-1.743446, 37.527404",2021-04-06,Conventional,Rain-fed,No,9,28,22,13,3,0,24,3,8,0,0,0,1060,842,580,36,36,33,367,221,374,0,0,0,110,-1.743446,37.527404
F325,Matthew Chavez,Nguu,"-1.400568, 37.306027",2025-12-30,Organic,Rain-fed,Yes,42,47,24,33,50,21,27,0,0,0,6,0,1431,1451,1139,1006,804,1245,0,0,0,78,90,48,250,-1.400568,37.306027
F326,Donna Knight DDS,Kitise,"-1.992538, 37.786171",2021-11-01,Organic,Rain-fed,No,6,0,13,25,0,0,16,25,11,18,2,0,351,416,429,0,0,0,914,600,528,26,28,28,116,-1.992538,37.786171
F327,Nicholas Morrison,Nguu,"-2.260971, 37.557074",2020-06-01,Conventional,Rain-fed,No,11,0,27,0,8,7,12,0,16,0,1,10,756,621,756,196,265,329,496,720,672,295,465,384,92,-2.260971,37.557074
F328,Michael Clarke,Ukia,"-1.526665, 38.038757",2025-04-12,Organic,Rain-fed,Yes,0,9,5,3,17,13,27,29,0,30,7,3,336,321,254,629,379,832,290,203,348,212,167,177,143,-1.526665,38.038757
F329,Christopher Nelson,Kitise,"-1.646605, 37.728057",2021-07-21,Conventional,Rain-fed,Yes,3,22,31,0,39,18,12,0,36,0,15,6,1403,1508,999,888,1143,1242,1656,864,1764,369,459,489,182,-1.646605,37.728057
F330,Michael Goodman,Makindu,"-1.922394, 37.56862",2021-06-16,Organic,Rain-fed,Yes,23,0,20,9,27,0,15,3,14,16,0,0,460,880,400,135,135,324,333,731,716,0,0,0,127,-1.922394,37.56862
F331,Peter Fischer,Nguu,"-2.318983, 37.244759",2023-09-05,Organic,Irrigated,No,38,0,0,11,0,10,11,11,21,0,0,0,0,0,0,420,380,360,793,811,580,0,0,0,102,-2.318983,37.244759
F332,Susan Rodriguez,Kathonzweni,"-2.282776, 37.875848",2024-08-28,Conventional,Irrigated,Yes,19,8,3,0,12,0,2,0,8,0,0,0,225,162,197,84,60,72,360,288,344,0,0,0,52,-2.282776,37.875848
F333,Jill Martinez,Kasikeu,"-1.802112, 38.013073",2025-02-15,Organic,Irrigated,Yes,41,12,10,0,5,1,13,11,19,0,0,0,474,494,450,54,92,89,735,1044,721,0,0,0,112,-1.802112,38.013073
F334,Breanna Thomas,Kibwezi,"-1.928041, 37.543901",2022-02-04,Conventional,Irrigated,No,0,0,0,7,29,27,0,42,26,10,3,19,0,0,0,1414,847,1017,772,1410,1648,787,714,737,163,-1.928041,37.543901
F335,Tyrone Bates,Emali,"-2.485612, 37.817053",2022-01-08,Conventional,Rain-fed,Yes,0,23,0,1,13,7,0,0,0,8,6,10,253,230,322,275,490,400,0,0,0,346,434,390,68,-2.485612,37.817053
F336,Jamie Green,Nziu,"-1.626991, 37.260169",2023-05-31,Organic,Irrigated,Yes,77,0,59,0,0,27,4,25,0,0,0,2,2537,2537,1239,1026,1134,621,125,350,150,78,96,100,194,-1.626991,37.260169
F337,Anna Payne,Kasikeu,"-1.533474, 38.018103",2020-05-02,Organic,Rain-fed,No,3,9,0,13,1,0,4,10,0,6,6,4,90,81,81,8,6,14,70,50,130,152,176,186,56,-1.533474,38.018103
F338,Hannah Gamble,Nzaui,"-2.07322, 38.068283",2021-11-15,Organic,Rain-fed,No,0,0,20,0,13,8,11,0,13,0,0,7,560,440,900,309,341,410,351,325,455,154,301,189,72,-2.07322,38.068283
F339,Mr. John Carr Jr.,Nziu,"-2.180102, 37.591543",2020-04-20,Conventional,Irrigated,Yes,70,40,68,0,23,0,0,17,23,0,0,0,3640,3728,2056,161,115,207,1290,1067,630,0,0,0,241,-2.180102,37.591543
F340,William Dean,Kitise,"-2.196187, 37.543949",2021-05-04,Conventional,Irrigated,Yes,55,23,51,0,12,3,24,0,0,0,0,0,2028,2747,2061,309,231,219,0,0,0,0,0,0,168,-2.196187,37.543949
F341,Elizabeth Taylor,Ukia,"-1.37344, 37.666556",2025-07-26,Organic,Rain-fed,Yes,13,28,51,0,10,13,7,0,3,0,0,0,2024,1601,1458,608,549,592,117,138,81,0,0,0,125,-1.37344,37.666556
F342,Laura Morse,Kasikeu,"-1.493885, 38.027404",2023-04-07,Conventional,Rain-fed,No,0,14,29,18,26,14,0,38,18,30,11,0,1486,1243,763,930,466,652,1034,676,1118,132,66,88,198,-1.493885,38.027404
F343,Jennifer Dickson,Kalawa,"-2.178779, 37.710271",2025-07-17,Organic,Irrigated,Yes,55,0,23,24,15,26,0,16,0,0,0,17,667,483,667,1465,621,1120,128,176,176,459,816,663,176,-2.178779,37.710271
F344,Darlene Ochoa,Kilungu,"-2.300472, 37.365148",2024-07-02,Conventional,Irrigated,No,32,3,0,0,16,28,0,2,16,0,0,0,45,24,24,1076,820,1224,362,414,794,0,0,0,97,-2.300472,37.365148
F345,Peter Simmons,Thange,"-2.120658, 37.915281",2020-04-28,Organic,Irrigated,No,17,0,68,14,0,0,25,54,30,0,0,0,1564,1836,2788,0,0,0,1980,1746,1320,0,0,0,208,-2.120658,37.915281
F346,Jacqueline Williams,Kitise,"-1.418766, 37.292835",2023-10-25,Organic,Rain-fed,No,66,0,13,0,0,0,14,0,17,24,12,0,611,572,572,0,0,0,442,714,578,84,108,132,146,-1.418766,37.292835
F347,Susan Thompson,Kathonzweni,"-1.995792, 37.367112",2022-02-13,Conventional,Irrigated,Yes,0,73,61,0,15,47,12,0,38,0,0,0,3182,3340,2840,1923,1906,2378,798,912,1254,0,0,0,246,-1.995792,37.367112
F348,Johnny Vargas,Mtito Andei,"-1.69351, 37.732656",2021-09-30,Organic,Rain-fed,No,9,50,0,0,12,15,0,16,29,13,0,6,300,500,650,408,567,387,1468,1388,911,240,282,210,150,-1.69351,37.732656
F349,Jessica Morgan,Nguu,"-1.780703, 37.275423",2020-11-06,Organic,Irrigated,Yes,26,0,51,0,33,0,3,21,22,2,13,1,2193,1836,1479,363,198,297,1371,694,1066,121,179,188,172,-1.780703,37.275423
F350,William Abbott,Emali,"-1.917763, 37.788569",2025-04-19,Organic,Irrigated,Yes,0,47,33,25,27,0,0,0,31,0,18,0,2190,1649,1470,135,297,189,1209,1178,1550,216,270,252,181,-1.917763,37.788569
